{
    "features": [
        {
          "properties": {
            "name": "Restaurant Den Gamle",
            "lat": 55.3993462,
            "lon": 10.3805229,
            "type": "restaurant"
          }
        },
        {
          "properties": {
            "name": "Burger Anarchy",
            "lat": 55.39775,
            "lon": 10.38853,
            "type": "restaurant"
          }
        },
        {
          "properties": {
            "name": "Pasfall ApS",
            "lat": 55.39541,
            "lon": 10.38162,
            "type": "restaurant"
          }
        },
        {
          "properties": {
            "name": "The Smagløse Café",
            "lat": 55.39747,
            "lon": 10.37957,
            "type": "restaurant"
          }
        },
        {
          "properties": {
            "name": "Seaweed",
            "lat": 55.39557,
            "lon": 10.38088,
            "type": "restaurant"
          }
        },
        {
          "properties": {
            "name": "Amy's Bar & Winehouse",
            "lat": 55.39647,
            "lon": 10.38548,
            "type": "restaurant"
          }
        },
        {
          "properties": {
            "name": "Privaten",
            "lat": 55.3963,
            "lon": 10.38592,
            "type": "bar"
          }
        },
        {
          "properties": {
            "name": "Old Irish Pub",
            "lat": 55.39544,
            "lon": 10.38358,
            "type": "restaurant"
          }
        },
        {
          "properties": {
            "name": "Restaurant Goma",
            "lat": 55.3982,
            "lon": 10.37985,
            "type": "restaurant"
          }
        },
        {
          "properties": {
            "name": "Kong Volmer",
            "lat": 55.39557,
            "lon": 10.37972,
            "type": "restaurant"
          }
        },
        {
          "properties": {
            "name": "Dunkbar",
            "lat": 55.39791,
            "lon": 10.38487,
            "type": "restaurant"
          }
        }
    ]
}
